{
"type": "FeatureCollection",
"name": "cta_rail_stations",
"crs": { "type": "name", "properties": { "name": "urn:ogc:def:crs:OGC:1.3:CRS84" } },
"features": [
{ "type": "Feature", "properties": { "STATION_ID": 450, "LONGNAME": "95th/Dan Ryan", "ADDRESS": "15 W. 95th Street", "LEGEND": "RD", "SHORTNAME": "95/Dan Ryan", "source_id": "cta_rail_stations", "friendly_name": "CTA Rail Stations", "geometry_type": "Point" }, "geometry": { "type": "Point", "coordinates": [ -87.624414745718909, 41.722375983712972 ] } },
{ "type": "Feature", "properties": { "STATION_ID": 1430, "LONGNAME": "87th", "ADDRESS": "15 W. 87th Street", "LEGEND": "RD", "SHORTNAME": "87th", "source_id": "cta_rail_stations", "friendly_name": "CTA Rail Stations", "geometry_type": "Point" }, "geometry": { "type": "Point", "coordinates": [ -87.62475307381564, 41.735371211521795 ] } },
{ "type": "Feature", "properties": { "STATION_ID": 240, "LONGNAME": "79th", "ADDRESS": "15 W. 79th Street", "LEGEND": "RD", "SHORTNAME": "79th", "source_id": "cta_rail_stations", "friendly_name": "CTA Rail Stations", "geometry_type": "Point" }, "geometry": { "type": "Point", "coordinates": [ -87.625178354334196, 41.75041234225656 ] } },
{ "type": "Feature", "properties": { "STATION_ID": 990, "LONGNAME": "69th", "ADDRESS": "15 W. 69th Street", "LEGEND": "RD", "SHORTNAME": "69th", "source_id": "cta_rail_stations", "friendly_name": "CTA Rail Stations", "geometry_type": "Point" }, "geometry": { "type": "Point", "coordinates": [ -87.625809350883273, 41.768367866090472 ] } },
{ "type": "Feature", "properties": { "STATION_ID": 1140, "LONGNAME": "King Drive", "ADDRESS": "400 E. 63rd Street", "LEGEND": "GR", "SHORTNAME": "King Drive", "source_id": "cta_rail_stations", "friendly_name": "CTA Rail Stations", "geometry_type": "Point" }, "geometry": { "type": "Point", "coordinates": [ -87.615545883583351, 41.780129716202389 ] } },
{ "type": "Feature", "properties": { "STATION_ID": 720, "LONGNAME": "Cottage Grove", "ADDRESS": "800 E. 63rd Street", "LEGEND": "GR", "SHORTNAME": "Cottage Grove", "source_id": "cta_rail_stations", "friendly_name": "CTA Rail Stations", "geometry_type": "Point" }, "geometry": { "type": "Point", "coordinates": [ -87.60585741650354, 41.780308767252833 ] } },
{ "type": "Feature", "properties": { "STATION_ID": 910, "LONGNAME": "63rd-Dan Ryan", "ADDRESS": "220 W. 63rd Street", "LEGEND": "RD", "SHORTNAME": "63rd", "source_id": "cta_rail_stations", "friendly_name": "CTA Rail Stations", "geometry_type": "Point" }, "geometry": { "type": "Point", "coordinates": [ -87.631000449776465, 41.780534334350712 ] } },
{ "type": "Feature", "properties": { "STATION_ID": 510, "LONGNAME": "Garfield-South Elevated", "ADDRESS": "319 E. Garfield Boulevard", "LEGEND": "GR", "SHORTNAME": "Garfield", "source_id": "cta_rail_stations", "friendly_name": "CTA Rail Stations", "geometry_type": "Point" }, "geometry": { "type": "Point", "coordinates": [ -87.61832410772756, 41.795176654035252 ] } },
{ "type": "Feature", "properties": { "STATION_ID": 1170, "LONGNAME": "Garfield-Dan Ryan", "ADDRESS": "220 W. Garfield Boulevard", "LEGEND": "RD", "SHORTNAME": "Garfield", "source_id": "cta_rail_stations", "friendly_name": "CTA Rail Stations", "geometry_type": "Point" }, "geometry": { "type": "Point", "coordinates": [ -87.631169169320103, 41.795418262661762 ] } },
{ "type": "Feature", "properties": { "STATION_ID": 130, "LONGNAME": "51st", "ADDRESS": "314 E. 51st Street", "LEGEND": "GR", "SHORTNAME": "51st", "source_id": "cta_rail_stations", "friendly_name": "CTA Rail Stations", "geometry_type": "Point" }, "geometry": { "type": "Point", "coordinates": [ -87.618501599081966, 41.802091584300662 ] } },
{ "type": "Feature", "properties": { "STATION_ID": 290, "LONGNAME": "Ashland/63rd", "ADDRESS": "6315 S. Ashland Avenue", "LEGEND": "GR", "SHORTNAME": "Ashland", "source_id": "cta_rail_stations", "friendly_name": "CTA Rail Stations", "geometry_type": "Point" }, "geometry": { "type": "Point", "coordinates": [ -87.663844848882093, 41.778953405961133 ] } },
{ "type": "Feature", "properties": { "STATION_ID": 940, "LONGNAME": "Halsted/63rd", "ADDRESS": "6321-25 S. Halsted Street", "LEGEND": "GR", "SHORTNAME": "Halsted", "source_id": "cta_rail_stations", "friendly_name": "CTA Rail Stations", "geometry_type": "Point" }, "geometry": { "type": "Point", "coordinates": [ -87.644023126908351, 41.779027867470631 ] } },
{ "type": "Feature", "properties": { "STATION_ID": 1060, "LONGNAME": "Ashland-Midway", "ADDRESS": "3011 S. Ashland Avenue", "LEGEND": "OR", "SHORTNAME": "Ashland", "source_id": "cta_rail_stations", "friendly_name": "CTA Rail Stations", "geometry_type": "Point" }, "geometry": { "type": "Point", "coordinates": [ -87.665311663928208, 41.839355879078703 ] } },
{ "type": "Feature", "properties": { "STATION_ID": 1130, "LONGNAME": "Halsted-Midway", "ADDRESS": "2520 S. Archer Avenue", "LEGEND": "OR", "SHORTNAME": "Halsted", "source_id": "cta_rail_stations", "friendly_name": "CTA Rail Stations", "geometry_type": "Point" }, "geometry": { "type": "Point", "coordinates": [ -87.648131103949027, 41.846901440960103 ] } },
{ "type": "Feature", "properties": { "STATION_ID": 350, "LONGNAME": "UIC-Halsted", "ADDRESS": "430 Halsted Street", "LEGEND": "BL", "SHORTNAME": "UIC-Halsted", "source_id": "cta_rail_stations", "friendly_name": "CTA Rail Stations", "geometry_type": "Point" }, "geometry": { "type": "Point", "coordinates": [ -87.649642230693743, 41.875516208914085 ] } },
{ "type": "Feature", "properties": { "STATION_ID": 430, "LONGNAME": "Clinton-Congress", "ADDRESS": "426 S. Clinton Street", "LEGEND": "BL", "SHORTNAME": "Clinton", "source_id": "cta_rail_stations", "friendly_name": "CTA Rail Stations", "geometry_type": "Point" }, "geometry": { "type": "Point", "coordinates": [ -87.640984216356429, 41.875538904810192 ] } },
{ "type": "Feature", "properties": { "STATION_ID": 470, "LONGNAME": "Racine", "ADDRESS": "430 S. Racine Avenue", "LEGEND": "BL", "SHORTNAME": "Racine", "source_id": "cta_rail_stations", "friendly_name": "CTA Rail Stations", "geometry_type": "Point" }, "geometry": { "type": "Point", "coordinates": [ -87.659455509053331, 41.875885634166963 ] } },
{ "type": "Feature", "properties": { "STATION_ID": 160, "LONGNAME": "LaSalle/Van Buren", "ADDRESS": "121 W. Van Buren Street", "LEGEND": "ML", "SHORTNAME": "LaSalle/Van Buren", "source_id": "cta_rail_stations", "friendly_name": "CTA Rail Stations", "geometry_type": "Point" }, "geometry": { "type": "Point", "coordinates": [ -87.631733834382004, 41.876855335172209 ] } },
{ "type": "Feature", "properties": { "STATION_ID": 40, "LONGNAME": "Quincy/Wells", "ADDRESS": "220 S. Wells Street", "LEGEND": "ML", "SHORTNAME": "Quincy/Wells", "source_id": "cta_rail_stations", "friendly_name": "CTA Rail Stations", "geometry_type": "Point" }, "geometry": { "type": "Point", "coordinates": [ -87.633739976086261, 41.878723283136353 ] } },
{ "type": "Feature", "properties": { "STATION_ID": 730, "LONGNAME": "Washington/Wells", "ADDRESS": "100 N. Wells Street", "LEGEND": "ML", "SHORTNAME": "Washington/Wells", "source_id": "cta_rail_stations", "friendly_name": "CTA Rail Stations", "geometry_type": "Point" }, "geometry": { "type": "Point", "coordinates": [ -87.633853530572523, 41.882695018792063 ] } },
{ "type": "Feature", "properties": { "STATION_ID": 1080, "LONGNAME": "47th-South Elevated", "ADDRESS": "314 E. 47th Street", "LEGEND": "GR", "SHORTNAME": "47th", "source_id": "cta_rail_stations", "friendly_name": "CTA Rail Stations", "geometry_type": "Point" }, "geometry": { "type": "Point", "coordinates": [ -87.618826128734838, 41.809208834873658 ] } },
{ "type": "Feature", "properties": { "STATION_ID": 1230, "LONGNAME": "47th-Dan Ryan", "ADDRESS": "220 W. 47th Street", "LEGEND": "RD", "SHORTNAME": "47th", "source_id": "cta_rail_stations", "friendly_name": "CTA Rail Stations", "geometry_type": "Point" }, "geometry": { "type": "Point", "coordinates": [ -87.631025797015496, 41.810338132774561 ] } },
{ "type": "Feature", "properties": { "STATION_ID": 1270, "LONGNAME": "43rd", "ADDRESS": "314 E. 43rd Street", "LEGEND": "GR", "SHORTNAME": "43rd", "source_id": "cta_rail_stations", "friendly_name": "CTA Rail Stations", "geometry_type": "Point" }, "geometry": { "type": "Point", "coordinates": [ -87.619021138793883, 41.816462288642192 ] } },
{ "type": "Feature", "properties": { "STATION_ID": 300, "LONGNAME": "Indiana", "ADDRESS": "4003 S. Indiana Avenue", "LEGEND": "GR", "SHORTNAME": "Indiana", "source_id": "cta_rail_stations", "friendly_name": "CTA Rail Stations", "geometry_type": "Point" }, "geometry": { "type": "Point", "coordinates": [ -87.621462810795236, 41.821815196339784 ] } },
{ "type": "Feature", "properties": { "STATION_ID": 190, "LONGNAME": "Sox-35th-Dan Ryan", "ADDRESS": "142 W. 35th Street", "LEGEND": "RD", "SHORTNAME": "Sox-35th", "source_id": "cta_rail_stations", "friendly_name": "CTA Rail Stations", "geometry_type": "Point" }, "geometry": { "type": "Point", "coordinates": [ -87.630636295482873, 41.831190560690082 ] } },
{ "type": "Feature", "properties": { "STATION_ID": 1120, "LONGNAME": "35-Bronzeville-IIT", "ADDRESS": "16 E. 35th Street", "LEGEND": "GR", "SHORTNAME": "35-Bronzeville-IIT", "source_id": "cta_rail_stations", "friendly_name": "CTA Rail Stations", "geometry_type": "Point" }, "geometry": { "type": "Point", "coordinates": [ -87.625881473637648, 41.831678021499734 ] } },
{ "type": "Feature", "properties": { "STATION_ID": 1690, "LONGNAME": "Cermak - McCormick", "ADDRESS": "12 E. Cermak Road", "LEGEND": "GR", "SHORTNAME": "Cermak - McCormick", "source_id": "cta_rail_stations", "friendly_name": "CTA Rail Stations", "geometry_type": "Point" }, "geometry": { "type": "Point", "coordinates": [ -87.626402384907678, 41.853115083090962 ] } },
{ "type": "Feature", "properties": { "STATION_ID": 1000, "LONGNAME": "Cermak-Chinatown", "ADDRESS": "138 W. Cermak Road", "LEGEND": "RD", "SHORTNAME": "Cermak-Chinatown", "source_id": "cta_rail_stations", "friendly_name": "CTA Rail Stations", "geometry_type": "Point" }, "geometry": { "type": "Point", "coordinates": [ -87.630967825812945, 41.853205796066732 ] } },
{ "type": "Feature", "properties": { "STATION_ID": 1400, "LONGNAME": "Roosevelt/State", "ADDRESS": "1167 S. State Street", "LEGEND": "RD", "SHORTNAME": "Roosevelt", "source_id": "cta_rail_stations", "friendly_name": "CTA Rail Stations", "geometry_type": "Point" }, "geometry": { "type": "Point", "coordinates": [ -87.627402382854058, 41.867367665276809 ] } },
{ "type": "Feature", "properties": { "STATION_ID": 410, "LONGNAME": "Roosevelt/Wabash", "ADDRESS": "22 E. Roosevelt Road", "LEGEND": "ML", "SHORTNAME": "Roosevelt", "source_id": "cta_rail_stations", "friendly_name": "CTA Rail Stations", "geometry_type": "Point" }, "geometry": { "type": "Point", "coordinates": [ -87.626589886762616, 41.8674049591936 ] } },
{ "type": "Feature", "properties": { "STATION_ID": 1490, "LONGNAME": "Harrison", "ADDRESS": "608 S. State Street", "LEGEND": "RD", "SHORTNAME": "Harrison", "source_id": "cta_rail_stations", "friendly_name": "CTA Rail Stations", "geometry_type": "Point" }, "geometry": { "type": "Point", "coordinates": [ -87.627479117991143, 41.874039243743809 ] } },
{ "type": "Feature", "properties": { "STATION_ID": 1340, "LONGNAME": "LaSalle", "ADDRESS": "150 W. Congress Parkway", "LEGEND": "BL", "SHORTNAME": "LaSalle", "source_id": "cta_rail_stations", "friendly_name": "CTA Rail Stations", "geometry_type": "Point" }, "geometry": { "type": "Point", "coordinates": [ -87.631722074929883, 41.875567626225859 ] } },
{ "type": "Feature", "properties": { "STATION_ID": 850, "LONGNAME": "Harold Washington Library - State/VanBuren", "ADDRESS": "26 W. Van Buren Street", "LEGEND": "ML", "SHORTNAME": "H.Washington Library", "source_id": "cta_rail_stations", "friendly_name": "CTA Rail Stations", "geometry_type": "Point" }, "geometry": { "type": "Point", "coordinates": [ -87.628209144229544, 41.876908340804306 ] } },
{ "type": "Feature", "properties": { "STATION_ID": 560, "LONGNAME": "Jackson/State", "ADDRESS": "230 S. State Street", "LEGEND": "RD", "SHORTNAME": "Jackson", "source_id": "cta_rail_stations", "friendly_name": "CTA Rail Stations", "geometry_type": "Point" }, "geometry": { "type": "Point", "coordinates": [ -87.627596097163931, 41.87815275704822 ] } },
{ "type": "Feature", "properties": { "STATION_ID": 70, "LONGNAME": "Jackson/Dearborn", "ADDRESS": "328 S. Dearborn Street", "LEGEND": "BL", "SHORTNAME": "Jackson", "source_id": "cta_rail_stations", "friendly_name": "CTA Rail Stations", "geometry_type": "Point" }, "geometry": { "type": "Point", "coordinates": [ -87.629295664129472, 41.878182519312467 ] } },
{ "type": "Feature", "properties": { "STATION_ID": 680, "LONGNAME": "Adams/Wabash", "ADDRESS": "201-23 S. Wabash Avenue", "LEGEND": "ML", "SHORTNAME": "Adams/Wabash", "source_id": "cta_rail_stations", "friendly_name": "CTA Rail Stations", "geometry_type": "Point" }, "geometry": { "type": "Point", "coordinates": [ -87.62609790016289, 41.879510219360071 ] } },
{ "type": "Feature", "properties": { "STATION_ID": 790, "LONGNAME": "Monroe/Dearborn", "ADDRESS": "114 S. Dearborn Street", "LEGEND": "BL", "SHORTNAME": "Monroe", "source_id": "cta_rail_stations", "friendly_name": "CTA Rail Stations", "geometry_type": "Point" }, "geometry": { "type": "Point", "coordinates": [ -87.629377700004682, 41.880703461370409 ] } },
{ "type": "Feature", "properties": { "STATION_ID": 1090, "LONGNAME": "Monroe/State", "ADDRESS": "26 S. State Street", "LEGEND": "RD", "SHORTNAME": "Monroe", "source_id": "cta_rail_stations", "friendly_name": "CTA Rail Stations", "geometry_type": "Point" }, "geometry": { "type": "Point", "coordinates": [ -87.627696458974938, 41.880744558744972 ] } },
{ "type": "Feature", "properties": { "STATION_ID": 370, "LONGNAME": "Washington/Dearborn", "ADDRESS": "19 N. Dearborn Street", "LEGEND": "BL", "SHORTNAME": "Washington", "source_id": "cta_rail_stations", "friendly_name": "CTA Rail Stations", "geometry_type": "Point" }, "geometry": { "type": "Point", "coordinates": [ -87.629440059350742, 41.883164426273055 ] } },
{ "type": "Feature", "properties": { "STATION_ID": 1700, "LONGNAME": "Washington/Wabash", "ADDRESS": "29 N. Wabash", "LEGEND": "ML", "SHORTNAME": "Washington/Wabash", "source_id": "cta_rail_stations", "friendly_name": "CTA Rail Stations", "geometry_type": "Point" }, "geometry": { "type": "Point", "coordinates": [ -87.626188784708219, 41.883220012680887 ] } },
{ "type": "Feature", "properties": { "STATION_ID": 1660, "LONGNAME": "Lake/State", "ADDRESS": "188 N. State Street", "LEGEND": "RD", "SHORTNAME": "Lake", "source_id": "cta_rail_stations", "friendly_name": "CTA Rail Stations", "geometry_type": "Point" }, "geometry": { "type": "Point", "coordinates": [ -87.627813380273381, 41.884808867709609 ] } },
{ "type": "Feature", "properties": { "STATION_ID": 380, "LONGNAME": "Clark/Lake", "ADDRESS": "100 W. Lake Street", "LEGEND": "ML", "SHORTNAME": "Clark/Lake", "source_id": "cta_rail_stations", "friendly_name": "CTA Rail Stations", "geometry_type": "Point" }, "geometry": { "type": "Point", "coordinates": [ -87.630886018720176, 41.885736986425322 ] } },
{ "type": "Feature", "properties": { "STATION_ID": 260, "LONGNAME": "State/Lake", "ADDRESS": "200 N. State Street", "LEGEND": "ML", "SHORTNAME": "State/Lake", "source_id": "cta_rail_stations", "friendly_name": "CTA Rail Stations", "geometry_type": "Point" }, "geometry": { "type": "Point", "coordinates": [ -87.6278351805976, 41.885740411117368 ] } },
{ "type": "Feature", "properties": { "STATION_ID": 330, "LONGNAME": "Grand/State", "ADDRESS": "521 N. State Street", "LEGEND": "RD", "SHORTNAME": "Grand", "source_id": "cta_rail_stations", "friendly_name": "CTA Rail Stations", "geometry_type": "Point" }, "geometry": { "type": "Point", "coordinates": [ -87.62802125683568, 41.891665201151895 ] } },
{ "type": "Feature", "properties": { "STATION_ID": 1450, "LONGNAME": "Chicago/State", "ADDRESS": "800 N. State Street", "LEGEND": "RD", "SHORTNAME": "Chicago", "source_id": "cta_rail_stations", "friendly_name": "CTA Rail Stations", "geometry_type": "Point" }, "geometry": { "type": "Point", "coordinates": [ -87.628176351581061, 41.896671212644399 ] } },
{ "type": "Feature", "properties": { "STATION_ID": 630, "LONGNAME": "Clark/Division", "ADDRESS": "1200 N. Clark Street", "LEGEND": "RD", "SHORTNAME": "Clark/Division", "source_id": "cta_rail_stations", "friendly_name": "CTA Rail Stations", "geometry_type": "Point" }, "geometry": { "type": "Point", "coordinates": [ -87.631412292341437, 41.903920312589804 ] } },
{ "type": "Feature", "properties": { "STATION_ID": 1510, "LONGNAME": "Morgan", "ADDRESS": "958 W Lake Street", "LEGEND": "GR", "SHORTNAME": "Morgan", "source_id": "cta_rail_stations", "friendly_name": "CTA Rail Stations", "geometry_type": "Point" }, "geometry": { "type": "Point", "coordinates": [ -87.65212799320426, 41.885576789244176 ] } },
{ "type": "Feature", "properties": { "STATION_ID": 1160, "LONGNAME": "Clinton-Lake", "ADDRESS": "540 W. Lake Street", "LEGEND": "GR", "SHORTNAME": "Clinton", "source_id": "cta_rail_stations", "friendly_name": "CTA Rail Stations", "geometry_type": "Point" }, "geometry": { "type": "Point", "coordinates": [ -87.641771304748346, 41.885703423002681 ] } },
{ "type": "Feature", "properties": { "STATION_ID": 460, "LONGNAME": "Merchandise Mart", "ADDRESS": "222 Merchandise Mart Plaza", "LEGEND": "ML", "SHORTNAME": "Merchandise Mart", "source_id": "cta_rail_stations", "friendly_name": "CTA Rail Stations", "geometry_type": "Point" }, "geometry": { "type": "Point", "coordinates": [ -87.633973360916684, 41.888967933613678 ] } },
{ "type": "Feature", "properties": { "STATION_ID": 490, "LONGNAME": "Grand/Milwaukee", "ADDRESS": "502 N. Milwaukee Avenue", "LEGEND": "BL", "SHORTNAME": "Grand", "source_id": "cta_rail_stations", "friendly_name": "CTA Rail Stations", "geometry_type": "Point" }, "geometry": { "type": "Point", "coordinates": [ -87.64757830958979, 41.891189294059778 ] } },
{ "type": "Feature", "properties": { "STATION_ID": 1410, "LONGNAME": "Chicago/Milwaukee", "ADDRESS": "800 N. Milwaukee Avenue", "LEGEND": "BL", "SHORTNAME": "Chicago", "source_id": "cta_rail_stations", "friendly_name": "CTA Rail Stations", "geometry_type": "Point" }, "geometry": { "type": "Point", "coordinates": [ -87.655214279484426, 41.896075237337456 ] } },
{ "type": "Feature", "properties": { "STATION_ID": 710, "LONGNAME": "Chicago/Franklin", "ADDRESS": "300-02 W. Chicago Avenue", "LEGEND": "ML", "SHORTNAME": "Chicago", "source_id": "cta_rail_stations", "friendly_name": "CTA Rail Stations", "geometry_type": "Point" }, "geometry": { "type": "Point", "coordinates": [ -87.635946656946345, 41.896774171899764 ] } },
{ "type": "Feature", "properties": { "STATION_ID": 320, "LONGNAME": "Division/Milwaukee", "ADDRESS": "1200 N. Milwaukee Avenue", "LEGEND": "BL", "SHORTNAME": "Division", "source_id": "cta_rail_stations", "friendly_name": "CTA Rail Stations", "geometry_type": "Point" }, "geometry": { "type": "Point", "coordinates": [ -87.666496066491121, 41.903355085553102 ] } },
{ "type": "Feature", "properties": { "STATION_ID": 800, "LONGNAME": "Sedgwick", "ADDRESS": "1536-40 N. Sedgwick Avenue", "LEGEND": "ML", "SHORTNAME": "Sedgwick", "source_id": "cta_rail_stations", "friendly_name": "CTA Rail Stations", "geometry_type": "Point" }, "geometry": { "type": "Point", "coordinates": [ -87.639302165202011, 41.910409179979027 ] } },
{ "type": "Feature", "properties": { "STATION_ID": 650, "LONGNAME": "North/Clybourn", "ADDRESS": "1599 N. Clybourn Avenue", "LEGEND": "RD", "SHORTNAME": "North/Clybourn", "source_id": "cta_rail_stations", "friendly_name": "CTA Rail Stations", "geometry_type": "Point" }, "geometry": { "type": "Point", "coordinates": [ -87.649177266210444, 41.910654580283335 ] } },
{ "type": "Feature", "properties": { "STATION_ID": 660, "LONGNAME": "Armitage", "ADDRESS": "944-46 W. Armitage Avenue", "LEGEND": "ML", "SHORTNAME": "Armitage", "source_id": "cta_rail_stations", "friendly_name": "CTA Rail Stations", "geometry_type": "Point" }, "geometry": { "type": "Point", "coordinates": [ -87.652644305422172, 41.91821656815651 ] } },
{ "type": "Feature", "properties": { "STATION_ID": 1220, "LONGNAME": "Fullerton", "ADDRESS": "943-47 W. Fullerton Avenue", "LEGEND": "ML", "SHORTNAME": "Fullerton", "source_id": "cta_rail_stations", "friendly_name": "CTA Rail Stations", "geometry_type": "Point" }, "geometry": { "type": "Point", "coordinates": [ -87.652865838015899, 41.925051368137019 ] } },
{ "type": "Feature", "properties": { "STATION_ID": 530, "LONGNAME": "Diversey", "ADDRESS": "940-44 W. Diversey Avenue", "LEGEND": "ML", "SHORTNAME": "Diversey", "source_id": "cta_rail_stations", "friendly_name": "CTA Rail Stations", "geometry_type": "Point" }, "geometry": { "type": "Point", "coordinates": [ -87.653130857633258, 41.932731500942751 ] } },
{ "type": "Feature", "properties": { "STATION_ID": 1210, "LONGNAME": "Wellington", "ADDRESS": "945 W. Wellington Avenue", "LEGEND": "ML", "SHORTNAME": "Wellington", "source_id": "cta_rail_stations", "friendly_name": "CTA Rail Stations", "geometry_type": "Point" }, "geometry": { "type": "Point", "coordinates": [ -87.653266449846484, 41.936032602385893 ] } },
{ "type": "Feature", "properties": { "STATION_ID": 1320, "LONGNAME": "Belmont-North Main", "ADDRESS": "945-949 W. Belmont Avenue", "LEGEND": "ML", "SHORTNAME": "Belmont", "source_id": "cta_rail_stations", "friendly_name": "CTA Rail Stations", "geometry_type": "Point" }, "geometry": { "type": "Point", "coordinates": [ -87.65338048758619, 41.939750746418092 ] } },
{ "type": "Feature", "properties": { "STATION_ID": 360, "LONGNAME": "Southport", "ADDRESS": "3411 N. Southport Avenue", "LEGEND": "BR", "SHORTNAME": "Southport", "source_id": "cta_rail_stations", "friendly_name": "CTA Rail Stations", "geometry_type": "Point" }, "geometry": { "type": "Point", "coordinates": [ -87.663609560018614, 41.943812256443458 ] } },
{ "type": "Feature", "properties": { "STATION_ID": 1420, "LONGNAME": "Addison-North Main", "ADDRESS": "940 W. Addison Street", "LEGEND": "RD", "SHORTNAME": "Addison", "source_id": "cta_rail_stations", "friendly_name": "CTA Rail Stations", "geometry_type": "Point" }, "geometry": { "type": "Point", "coordinates": [ -87.653625930671396, 41.947427997129807 ] } },
{ "type": "Feature", "properties": { "STATION_ID": 80, "LONGNAME": "Sheridan", "ADDRESS": "3940 N. Sheridan Road", "LEGEND": "RD", "SHORTNAME": "Sheridan", "source_id": "cta_rail_stations", "friendly_name": "CTA Rail Stations", "geometry_type": "Point" }, "geometry": { "type": "Point", "coordinates": [ -87.654929392373788, 41.953774947614313 ] } },
{ "type": "Feature", "properties": { "STATION_ID": 540, "LONGNAME": "Wilson", "ADDRESS": "4920 N. Broadway Street", "LEGEND": "RD", "SHORTNAME": "Wilson", "source_id": "cta_rail_stations", "friendly_name": "CTA Rail Stations", "geometry_type": "Point" }, "geometry": { "type": "Point", "coordinates": [ -87.65758750965945, 41.96427269427938 ] } },
{ "type": "Feature", "properties": { "STATION_ID": 770, "LONGNAME": "Lawrence", "ADDRESS": "1117 W. Lawrence Avenue", "LEGEND": "RD", "SHORTNAME": "Lawrence", "source_id": "cta_rail_stations", "friendly_name": "CTA Rail Stations", "geometry_type": "Point" }, "geometry": { "type": "Point", "coordinates": [ -87.658492961572193, 41.969138940811916 ] } },
{ "type": "Feature", "properties": { "STATION_ID": 1200, "LONGNAME": "Argyle", "ADDRESS": "1118 W. Argyle Street", "LEGEND": "RD", "SHORTNAME": "Argyle", "source_id": "cta_rail_stations", "friendly_name": "CTA Rail Stations", "geometry_type": "Point" }, "geometry": { "type": "Point", "coordinates": [ -87.658529963678703, 41.97345332268533 ] } },
{ "type": "Feature", "properties": { "STATION_ID": 340, "LONGNAME": "Berwyn", "ADDRESS": "1121 W. Berwyn Avenue", "LEGEND": "RD", "SHORTNAME": "Berwyn", "source_id": "cta_rail_stations", "friendly_name": "CTA Rail Stations", "geometry_type": "Point" }, "geometry": { "type": "Point", "coordinates": [ -87.658668419320506, 41.977983992365381 ] } },
{ "type": "Feature", "properties": { "STATION_ID": 1380, "LONGNAME": "Bryn Mawr", "ADDRESS": "1119 W. Bryn Mawr Avenue", "LEGEND": "RD", "SHORTNAME": "Bryn Mawr", "source_id": "cta_rail_stations", "friendly_name": "CTA Rail Stations", "geometry_type": "Point" }, "geometry": { "type": "Point", "coordinates": [ -87.658840284780453, 41.983504225372698 ] } },
{ "type": "Feature", "properties": { "STATION_ID": 880, "LONGNAME": "Thorndale", "ADDRESS": "1118 W. Thorndale Avenue", "LEGEND": "RD", "SHORTNAME": "Thorndale", "source_id": "cta_rail_stations", "friendly_name": "CTA Rail Stations", "geometry_type": "Point" }, "geometry": { "type": "Point", "coordinates": [ -87.659075858848112, 41.990259494555566 ] } },
{ "type": "Feature", "properties": { "STATION_ID": 760, "LONGNAME": "Granville", "ADDRESS": "1119 W. Granville Avenue", "LEGEND": "RD", "SHORTNAME": "Granville", "source_id": "cta_rail_stations", "friendly_name": "CTA Rail Stations", "geometry_type": "Point" }, "geometry": { "type": "Point", "coordinates": [ -87.659202279328667, 41.993664260738534 ] } },
{ "type": "Feature", "properties": { "STATION_ID": 1300, "LONGNAME": "Loyola", "ADDRESS": "1200-08 W. Loyola Avenue", "LEGEND": "RD", "SHORTNAME": "Loyola", "source_id": "cta_rail_stations", "friendly_name": "CTA Rail Stations", "geometry_type": "Point" }, "geometry": { "type": "Point", "coordinates": [ -87.661060701166832, 42.001073359456555 ] } },
{ "type": "Feature", "properties": { "STATION_ID": 100, "LONGNAME": "Morse", "ADDRESS": "1358 W. Morse Avenue", "LEGEND": "RD", "SHORTNAME": "Morse", "source_id": "cta_rail_stations", "friendly_name": "CTA Rail Stations", "geometry_type": "Point" }, "geometry": { "type": "Point", "coordinates": [ -87.665909090169436, 42.008361818915404 ] } },
{ "type": "Feature", "properties": { "STATION_ID": 930, "LONGNAME": "Midway Airport", "ADDRESS": "4612 W. 59th Street", "LEGEND": "OR", "SHORTNAME": "Midway", "source_id": "cta_rail_stations", "friendly_name": "CTA Rail Stations", "geometry_type": "Point" }, "geometry": { "type": "Point", "coordinates": [ -87.737956372106041, 41.78661355078772 ] } },
{ "type": "Feature", "properties": { "STATION_ID": 960, "LONGNAME": "Pulaski-Midway", "ADDRESS": "5106 S. Pulaski Road", "LEGEND": "OR", "SHORTNAME": "Pulaski", "source_id": "cta_rail_stations", "friendly_name": "CTA Rail Stations", "geometry_type": "Point" }, "geometry": { "type": "Point", "coordinates": [ -87.724449643141071, 41.799887821211627 ] } },
{ "type": "Feature", "properties": { "STATION_ID": 600, "LONGNAME": "Kostner", "ADDRESS": "2019 S. Kildare Avenue", "LEGEND": "PK", "SHORTNAME": "Kostner", "source_id": "cta_rail_stations", "friendly_name": "CTA Rail Stations", "geometry_type": "Point" }, "geometry": { "type": "Point", "coordinates": [ -87.733263658051314, 41.853750687344089 ] } },
{ "type": "Feature", "properties": { "STATION_ID": 150, "LONGNAME": "Pulaski-Douglas", "ADDRESS": "2005-21 S. Pulaski Road", "LEGEND": "PK", "SHORTNAME": "Pulaski", "source_id": "cta_rail_stations", "friendly_name": "CTA Rail Stations", "geometry_type": "Point" }, "geometry": { "type": "Point", "coordinates": [ -87.724326724342518, 41.853856831022348 ] } },
{ "type": "Feature", "properties": { "STATION_ID": 780, "LONGNAME": "Central Park", "ADDRESS": "1915 S. Central Park Avenue", "LEGEND": "PK", "SHORTNAME": "Central Park", "source_id": "cta_rail_stations", "friendly_name": "CTA Rail Stations", "geometry_type": "Point" }, "geometry": { "type": "Point", "coordinates": [ -87.71488026394195, 41.853991955163586 ] } },
{ "type": "Feature", "properties": { "STATION_ID": 970, "LONGNAME": "Cicero-Congress", "ADDRESS": "720 S. Cicero Avenue", "LEGEND": "BL", "SHORTNAME": "Cicero", "source_id": "cta_rail_stations", "friendly_name": "CTA Rail Stations", "geometry_type": "Point" }, "geometry": { "type": "Point", "coordinates": [ -87.745172178034281, 41.871608050752286 ] } },
{ "type": "Feature", "properties": { "STATION_ID": 1150, "LONGNAME": "Kedzie-Midway", "ADDRESS": "4900 S. Kedzie Avenue", "LEGEND": "OR", "SHORTNAME": "Kedzie", "source_id": "cta_rail_stations", "friendly_name": "CTA Rail Stations", "geometry_type": "Point" }, "geometry": { "type": "Point", "coordinates": [ -87.70432066542692, 41.804348409079317 ] } },
{ "type": "Feature", "properties": { "STATION_ID": 310, "LONGNAME": "Western-Midway", "ADDRESS": "4901 S. Western Avenue", "LEGEND": "OR", "SHORTNAME": "Western", "source_id": "cta_rail_stations", "friendly_name": "CTA Rail Stations", "geometry_type": "Point" }, "geometry": { "type": "Point", "coordinates": [ -87.684064987277466, 41.804683560025424 ] } },
{ "type": "Feature", "properties": { "STATION_ID": 120, "LONGNAME": "35th/Archer", "ADDRESS": "3528 S. Leavitt Street", "LEGEND": "OR", "SHORTNAME": "35th/Archer", "source_id": "cta_rail_stations", "friendly_name": "CTA Rail Stations", "geometry_type": "Point" }, "geometry": { "type": "Point", "coordinates": [ -87.680587368337228, 41.829560088237997 ] } },
{ "type": "Feature", "properties": { "STATION_ID": 1040, "LONGNAME": "Kedzie-Douglas", "ADDRESS": "1944 S. Kedzie Avenue", "LEGEND": "PK", "SHORTNAME": "Kedzie", "source_id": "cta_rail_stations", "friendly_name": "CTA Rail Stations", "geometry_type": "Point" }, "geometry": { "type": "Point", "coordinates": [ -87.705427956714615, 41.854130586514508 ] } },
{ "type": "Feature", "properties": { "STATION_ID": 440, "LONGNAME": "California-Douglas", "ADDRESS": "2011 S. California Avenue", "LEGEND": "PK", "SHORTNAME": "California", "source_id": "cta_rail_stations", "friendly_name": "CTA Rail Stations", "geometry_type": "Point" }, "geometry": { "type": "Point", "coordinates": [ -87.694822915812253, 41.854279630859644 ] } },
{ "type": "Feature", "properties": { "STATION_ID": 740, "LONGNAME": "Western-Douglas", "ADDRESS": "2009 S. Western Avenue", "LEGEND": "PK", "SHORTNAME": "Western", "source_id": "cta_rail_stations", "friendly_name": "CTA Rail Stations", "geometry_type": "Point" }, "geometry": { "type": "Point", "coordinates": [ -87.685179221140871, 41.854396837319577 ] } },
{ "type": "Feature", "properties": { "STATION_ID": 210, "LONGNAME": "Damen", "ADDRESS": "2009 S. Hoyne Avenue", "LEGEND": "PK", "SHORTNAME": "Damen", "source_id": "cta_rail_stations", "friendly_name": "CTA Rail Stations", "geometry_type": "Point" }, "geometry": { "type": "Point", "coordinates": [ -87.675974096084616, 41.854514861971552 ] } },
{ "type": "Feature", "properties": { "STATION_ID": 830, "LONGNAME": "18th", "ADDRESS": "1710 W. 18th Street", "LEGEND": "PK", "SHORTNAME": "18th", "source_id": "cta_rail_stations", "friendly_name": "CTA Rail Stations", "geometry_type": "Point" }, "geometry": { "type": "Point", "coordinates": [ -87.669160125233233, 41.857907708489812 ] } },
{ "type": "Feature", "properties": { "STATION_ID": 1030, "LONGNAME": "Polk", "ADDRESS": "1713 W. Polk Street", "LEGEND": "PK", "SHORTNAME": "Polk", "source_id": "cta_rail_stations", "friendly_name": "CTA Rail Stations", "geometry_type": "Point" }, "geometry": { "type": "Point", "coordinates": [ -87.669543227802549, 41.871563004356858 ] } },
{ "type": "Feature", "properties": { "STATION_ID": 250, "LONGNAME": "Kedzie-Homan-Congress", "ADDRESS": "530 S. Kedzie Avenue", "LEGEND": "BL", "SHORTNAME": "Kedzie-Homan", "source_id": "cta_rail_stations", "friendly_name": "CTA Rail Stations", "geometry_type": "Point" }, "geometry": { "type": "Point", "coordinates": [ -87.705978295774727, 41.874425509384231 ] } },
{ "type": "Feature", "properties": { "STATION_ID": 920, "LONGNAME": "Pulaski-Congress", "ADDRESS": "530 S. Pulaski Road", "LEGEND": "BL", "SHORTNAME": "Pulaski", "source_id": "cta_rail_stations", "friendly_name": "CTA Rail Stations", "geometry_type": "Point" }, "geometry": { "type": "Point", "coordinates": [ -87.725624930360269, 41.873888724491373 ] } },
{ "type": "Feature", "properties": { "STATION_ID": 1670, "LONGNAME": "Conservatory", "ADDRESS": "3631 W. Lake Street", "LEGEND": "GR", "SHORTNAME": "Conservatory", "source_id": "cta_rail_stations", "friendly_name": "CTA Rail Stations", "geometry_type": "Point" }, "geometry": { "type": "Point", "coordinates": [ -87.716522833768963, 41.884904379363476 ] } },
{ "type": "Feature", "properties": { "STATION_ID": 30, "LONGNAME": "Pulaski-Lake", "ADDRESS": "4000 W. Lake Street", "LEGEND": "GR", "SHORTNAME": "Pulaski", "source_id": "cta_rail_stations", "friendly_name": "CTA Rail Stations", "geometry_type": "Point" }, "geometry": { "type": "Point", "coordinates": [ -87.725403767945437, 41.885411979847603 ] } },
{ "type": "Feature", "properties": { "STATION_ID": 480, "LONGNAME": "Cicero-Lake", "ADDRESS": "4800 W. Lake Street", "LEGEND": "GR", "SHORTNAME": "Cicero", "source_id": "cta_rail_stations", "friendly_name": "CTA Rail Stations", "geometry_type": "Point" }, "geometry": { "type": "Point", "coordinates": [ -87.744698400017413, 41.886519353094023 ] } },
{ "type": "Feature", "properties": { "STATION_ID": 700, "LONGNAME": "Laramie", "ADDRESS": "5148 W. Lake Street", "LEGEND": "GR", "SHORTNAME": "Laramie", "source_id": "cta_rail_stations", "friendly_name": "CTA Rail Stations", "geometry_type": "Point" }, "geometry": { "type": "Point", "coordinates": [ -87.754986495024696, 41.887163226758098 ] } },
{ "type": "Feature", "properties": { "STATION_ID": 220, "LONGNAME": "Western-Congress", "ADDRESS": "430 S. Western Avenue", "LEGEND": "BL", "SHORTNAME": "Western", "source_id": "cta_rail_stations", "friendly_name": "CTA Rail Stations", "geometry_type": "Point" }, "geometry": { "type": "Point", "coordinates": [ -87.688434510484711, 41.875529573968528 ] } },
{ "type": "Feature", "properties": { "STATION_ID": 810, "LONGNAME": "Illinois Medical District", "ADDRESS": "430 S. Damen Avenue", "LEGEND": "BL", "SHORTNAME": "Illinois Medical District", "source_id": "cta_rail_stations", "friendly_name": "CTA Rail Stations", "geometry_type": "Point" }, "geometry": { "type": "Point", "coordinates": [ -87.673945879796463, 41.875635429086607 ] } },
{ "type": "Feature", "properties": { "STATION_ID": 1360, "LONGNAME": "California-Lake", "ADDRESS": "2800 W. Lake Street", "LEGEND": "GR", "SHORTNAME": "California", "source_id": "cta_rail_stations", "friendly_name": "CTA Rail Stations", "geometry_type": "Point" }, "geometry": { "type": "Point", "coordinates": [ -87.69623421540453, 41.884219531476951 ] } },
{ "type": "Feature", "properties": { "STATION_ID": 1070, "LONGNAME": "Kedzie-Lake", "ADDRESS": "3200 W. Lake Street", "LEGEND": "GR", "SHORTNAME": "Kedzie", "source_id": "cta_rail_stations", "friendly_name": "CTA Rail Stations", "geometry_type": "Point" }, "geometry": { "type": "Point", "coordinates": [ -87.706155421043874, 41.88432109607573 ] } },
{ "type": "Feature", "properties": { "STATION_ID": 170, "LONGNAME": "Ashland-Lake", "ADDRESS": "1601 W. Lake Street", "LEGEND": "GR", "SHORTNAME": "Ashland", "source_id": "cta_rail_stations", "friendly_name": "CTA Rail Stations", "geometry_type": "Point" }, "geometry": { "type": "Point", "coordinates": [ -87.666950937296065, 41.885311395450316 ] } },
{ "type": "Feature", "properties": { "STATION_ID": 590, "LONGNAME": "Damen/Milwaukee", "ADDRESS": "1588 N. Damen Avenue", "LEGEND": "BL", "SHORTNAME": "Damen", "source_id": "cta_rail_stations", "friendly_name": "CTA Rail Stations", "geometry_type": "Point" }, "geometry": { "type": "Point", "coordinates": [ -87.677436654095033, 41.909743792666298 ] } },
{ "type": "Feature", "properties": { "STATION_ID": 670, "LONGNAME": "Western/Milwaukee", "ADDRESS": "1909-11 N. Western Avenue", "LEGEND": "BL", "SHORTNAME": "Western", "source_id": "cta_rail_stations", "friendly_name": "CTA Rail Stations", "geometry_type": "Point" }, "geometry": { "type": "Point", "coordinates": [ -87.687364381466523, 41.916157429094348 ] } },
{ "type": "Feature", "properties": { "STATION_ID": 570, "LONGNAME": "California/Milwaukee", "ADDRESS": "2211 N. California Avenue", "LEGEND": "BL", "SHORTNAME": "California", "source_id": "cta_rail_stations", "friendly_name": "CTA Rail Stations", "geometry_type": "Point" }, "geometry": { "type": "Point", "coordinates": [ -87.696889798998853, 41.921939171107539 ] } },
{ "type": "Feature", "properties": { "STATION_ID": 1310, "LONGNAME": "Paulina", "ADDRESS": "3411 N. Paulina Street", "LEGEND": "BR", "SHORTNAME": "Paulina", "source_id": "cta_rail_stations", "friendly_name": "CTA Rail Stations", "geometry_type": "Point" }, "geometry": { "type": "Point", "coordinates": [ -87.670883944101263, 41.943709148682899 ] } },
{ "type": "Feature", "properties": { "STATION_ID": 1440, "LONGNAME": "Addison-Ravenswood", "ADDRESS": "1818-20 W. Addison Street", "LEGEND": "BR", "SHORTNAME": "Addison", "source_id": "cta_rail_stations", "friendly_name": "CTA Rail Stations", "geometry_type": "Point" }, "geometry": { "type": "Point", "coordinates": [ -87.674736108028611, 41.947028655192518 ] } },
{ "type": "Feature", "properties": { "STATION_ID": 1260, "LONGNAME": "Austin-Lake", "ADDRESS": "351 N. Austin Avenue", "LEGEND": "GR", "SHORTNAME": "Austin", "source_id": "cta_rail_stations", "friendly_name": "CTA Rail Stations", "geometry_type": "Point" }, "geometry": { "type": "Point", "coordinates": [ -87.774135255821079, 41.887292784901675 ] } },
{ "type": "Feature", "properties": { "STATION_ID": 280, "LONGNAME": "Central-Lake", "ADDRESS": "350 N. Central Avenue", "LEGEND": "GR", "SHORTNAME": "Central", "source_id": "cta_rail_stations", "friendly_name": "CTA Rail Stations", "geometry_type": "Point" }, "geometry": { "type": "Point", "coordinates": [ -87.765649505117054, 41.887389014537213 ] } },
{ "type": "Feature", "properties": { "STATION_ID": 1020, "LONGNAME": "Logan Square", "ADDRESS": "2620 N. Milwaukee Avenue", "LEGEND": "BL", "SHORTNAME": "Logan Square", "source_id": "cta_rail_stations", "friendly_name": "CTA Rail Stations", "geometry_type": "Point" }, "geometry": { "type": "Point", "coordinates": [ -87.708541386439407, 41.929728041868117 ] } },
{ "type": "Feature", "properties": { "STATION_ID": 60, "LONGNAME": "Belmont-O'Hare", "ADDRESS": "3355 W. Belmont Avenue", "LEGEND": "BL", "SHORTNAME": "Belmont", "source_id": "cta_rail_stations", "friendly_name": "CTA Rail Stations", "geometry_type": "Point" }, "geometry": { "type": "Point", "coordinates": [ -87.712359349784379, 41.938131669628937 ] } },
{ "type": "Feature", "properties": { "STATION_ID": 1240, "LONGNAME": "Addison-O'Hare", "ADDRESS": "3622 W. Addison Street", "LEGEND": "BL", "SHORTNAME": "Addison", "source_id": "cta_rail_stations", "friendly_name": "CTA Rail Stations", "geometry_type": "Point" }, "geometry": { "type": "Point", "coordinates": [ -87.719099303066557, 41.947360101898624 ] } },
{ "type": "Feature", "properties": { "STATION_ID": 550, "LONGNAME": "Irving Park-O'Hare", "ADDRESS": "4131W. Irving Park Road", "LEGEND": "BL", "SHORTNAME": "Irving Park", "source_id": "cta_rail_stations", "friendly_name": "CTA Rail Stations", "geometry_type": "Point" }, "geometry": { "type": "Point", "coordinates": [ -87.729177264800867, 41.952940261865216 ] } },
{ "type": "Feature", "properties": { "STATION_ID": 1330, "LONGNAME": "Montrose-O'Hare", "ADDRESS": "4600 W. Montrose Avenue", "LEGEND": "BL", "SHORTNAME": "Montrose", "source_id": "cta_rail_stations", "friendly_name": "CTA Rail Stations", "geometry_type": "Point" }, "geometry": { "type": "Point", "coordinates": [ -87.743616974363974, 41.96148663358985 ] } },
{ "type": "Feature", "properties": { "STATION_ID": 1180, "LONGNAME": "Kedzie-Ravenswood", "ADDRESS": "4648 N. Kedzie Avenue", "LEGEND": "BR", "SHORTNAME": "Kedzie", "source_id": "cta_rail_stations", "friendly_name": "CTA Rail Stations", "geometry_type": "Point" }, "geometry": { "type": "Point", "coordinates": [ -87.708843793150876, 41.966092607271676 ] } },
{ "type": "Feature", "properties": { "STATION_ID": 1290, "LONGNAME": "Kimball", "ADDRESS": "4755-57 N. Kimball Avenue", "LEGEND": "BR", "SHORTNAME": "Kimball", "source_id": "cta_rail_stations", "friendly_name": "CTA Rail Stations", "geometry_type": "Point" }, "geometry": { "type": "Point", "coordinates": [ -87.71314203478731, 41.967928151656615 ] } },
{ "type": "Feature", "properties": { "STATION_ID": 1280, "LONGNAME": "Jefferson Park", "ADDRESS": "4917 N. Milwaukee Avenue", "LEGEND": "BL", "SHORTNAME": "Jefferson Park", "source_id": "cta_rail_stations", "friendly_name": "CTA Rail Stations", "geometry_type": "Point" }, "geometry": { "type": "Point", "coordinates": [ -87.760892280121624, 41.970634137646201 ] } },
{ "type": "Feature", "properties": { "STATION_ID": 1460, "LONGNAME": "Irving Park-Ravenswood", "ADDRESS": "1816-18 W. Irving Park Avenue", "LEGEND": "BR", "SHORTNAME": "Irving Park", "source_id": "cta_rail_stations", "friendly_name": "CTA Rail Stations", "geometry_type": "Point" }, "geometry": { "type": "Point", "coordinates": [ -87.674955743001107, 41.954523139903465 ] } },
{ "type": "Feature", "properties": { "STATION_ID": 1500, "LONGNAME": "Montrose-Ravenswood", "ADDRESS": "1814-16 W. Montrose Avenue", "LEGEND": "BR", "SHORTNAME": "Montrose", "source_id": "cta_rail_stations", "friendly_name": "CTA Rail Stations", "geometry_type": "Point" }, "geometry": { "type": "Point", "coordinates": [ -87.675165391034568, 41.961751711026892 ] } },
{ "type": "Feature", "properties": { "STATION_ID": 870, "LONGNAME": "Francisco", "ADDRESS": "4848 N. Francisco Avenue", "LEGEND": "BR", "SHORTNAME": "Francisco", "source_id": "cta_rail_stations", "friendly_name": "CTA Rail Stations", "geometry_type": "Point" }, "geometry": { "type": "Point", "coordinates": [ -87.701655733209094, 41.966146895712143 ] } },
{ "type": "Feature", "properties": { "STATION_ID": 1010, "LONGNAME": "Rockwell", "ADDRESS": "4648 N. Rockwell Street", "LEGEND": "BR", "SHORTNAME": "Rockwell", "source_id": "cta_rail_stations", "friendly_name": "CTA Rail Stations", "geometry_type": "Point" }, "geometry": { "type": "Point", "coordinates": [ -87.694111124851872, 41.966209949476053 ] } },
{ "type": "Feature", "properties": { "STATION_ID": 1480, "LONGNAME": "Western-Ravenswood", "ADDRESS": "4645-49 N. Western Avenue", "LEGEND": "BR", "SHORTNAME": "Western", "source_id": "cta_rail_stations", "friendly_name": "CTA Rail Stations", "geometry_type": "Point" }, "geometry": { "type": "Point", "coordinates": [ -87.688502606218165, 41.966250048219884 ] } },
{ "type": "Feature", "properties": { "STATION_ID": 90, "LONGNAME": "Damen-Ravenswood", "ADDRESS": "4643-47 N. Damen Avenue", "LEGEND": "BR", "SHORTNAME": "Damen", "source_id": "cta_rail_stations", "friendly_name": "CTA Rail Stations", "geometry_type": "Point" }, "geometry": { "type": "Point", "coordinates": [ -87.67863488416603, 41.966410973207701 ] } },
{ "type": "Feature", "properties": { "STATION_ID": 1190, "LONGNAME": "Jarvis", "ADDRESS": "1523-25 W. Jarvis Street", "LEGEND": "RD", "SHORTNAME": "Jarvis", "source_id": "cta_rail_stations", "friendly_name": "CTA Rail Stations", "geometry_type": "Point" }, "geometry": { "type": "Point", "coordinates": [ -87.669092111683284, 42.015876181297699 ] } },
{ "type": "Feature", "properties": { "STATION_ID": 900, "LONGNAME": "Howard", "ADDRESS": "1649 W. Howard Street", "LEGEND": "ML", "SHORTNAME": "Howard", "source_id": "cta_rail_stations", "friendly_name": "CTA Rail Stations", "geometry_type": "Point" }, "geometry": { "type": "Point", "coordinates": [ -87.672892450460949, 42.019063220386059 ] } },
{ "type": "Feature", "properties": { "STATION_ID": 890, "LONGNAME": "O'Hare Airport", "ADDRESS": "1000 O'Hare Drive", "LEGEND": "BL", "SHORTNAME": "O'Hare", "source_id": "cta_rail_stations", "friendly_name": "CTA Rail Stations", "geometry_type": "Point" }, "geometry": { "type": "Point", "coordinates": [ -87.901848400294199, 41.978876739362228 ] } },
{ "type": "Feature", "properties": { "STATION_ID": 750, "LONGNAME": "Harlem-O'Hare", "ADDRESS": "5550 N. Harlem Avenue", "LEGEND": "BL", "SHORTNAME": "Harlem", "source_id": "cta_rail_stations", "friendly_name": "CTA Rail Stations", "geometry_type": "Point" }, "geometry": { "type": "Point", "coordinates": [ -87.808894934702764, 41.982323370359822 ] } },
{ "type": "Feature", "properties": { "STATION_ID": 230, "LONGNAME": "Cumberland", "ADDRESS": "5800 N. Cumberland Avenue", "LEGEND": "BL", "SHORTNAME": "Cumberland", "source_id": "cta_rail_stations", "friendly_name": "CTA Rail Stations", "geometry_type": "Point" }, "geometry": { "type": "Point", "coordinates": [ -87.838025985892173, 41.98429405748152 ] } }
]
}
